timestamp,t,drone_id,experiment_id,pattern,x,y,z,vx,vy,vz,roll,pitch,yaw,ax,ay,az,gx,gy,gz,mx,my,mz,rpm1,rpm2,rpm3,rpm4,battery
1782499366.2587123,0.1956348419189453,drone_1,,square,,,,,,,,,,0.006,0.018,0.974,0.101,0.063,-0.003,0.066,0.0,0.0,12500,12048,11933,12422,7.165
1782499366.4640548,0.40097737312316895,drone_1,,square,,,,,,,,,,0.007,0.029,0.956,0.249,0.243,-0.002,0.066,0.0,0.0,12239,12180,11961,12285,7.162
1782499366.6657596,0.6026821136474609,drone_1,,square,,,,,,,,,,-0.002,0.041,0.984,0.125,0.088,0.01,0.066,0.0,0.0,12315,12315,12180,12254,7.154
1782499366.9439857,0.8809082508087158,drone_1,,square,,,,,,,,,,-0.011,0.041,1.065,-0.199,-0.115,-0.015,0.066,0.0,0.0,12500,11947,12135,12330,7.161
1782499367.1507483,1.0876708030700684,drone_1,,square,,,,,,,,,,-0.009,0.052,1.018,-0.082,-0.149,0.001,0.066,0.0,0.0,12330,11820,12062,12406,7.164
1782499367.3500483,1.286970853805542,drone_1,,square,,,,,,,,,,-0.016,0.046,0.984,-0.028,0.058,0.008,0.066,0.0,0.0,12239,11918,12195,12195,7.156
1782499367.5698373,1.5067598819732666,drone_1,,square,,,,,,,,,,-0.009,0.049,1.036,0.018,0.001,-0.006,0.066,0.0,0.0,12360,11961,12254,12300,7.153
1782499367.7472372,1.684159755706787,drone_1,,square,,,,,,,,,,-0.004,0.049,1.005,0.073,0.077,-0.002,0.066,0.0,0.0,12300,12033,12315,12269,7.157
1782499367.9458427,1.882765293121338,drone_1,,square,,,,,,,,,,-0.011,0.036,1.01,-0.031,-0.011,0.014,0.066,0.0,0.0,12239,12254,12594,12165,7.153
1782499368.1440532,2.0809757709503174,drone_1,,square,,,,,,,,,,-0.002,0.04,1.019,0.045,0.014,-0.002,0.066,0.0,0.0,12033,12391,12285,12033,7.156
1782499368.3908522,2.3277747631073,drone_1,,square,,,,,,,,,,-0.002,0.036,0.983,0.047,0.043,0.003,0.066,0.0,0.0,12048,12453,12531,11933,7.151
1782499368.6419134,2.578835964202881,drone_1,,square,,,,,,,,,,-0.008,0.051,0.987,-0.031,0.021,0.001,0.066,0.0,0.0,11961,12658,12484,11778,7.146
1782499368.8734183,2.8103408813476562,drone_1,,square,,,,,,,,,,-0.001,0.045,0.986,-0.047,0.014,0.002,0.066,0.0,0.0,12033,12722,12738,11534,7.142
1782499369.1619048,3.098827362060547,drone_1,,square,,,,,,,,,,0.006,0.043,0.972,0.092,-0.008,-0.03,0.066,0.0,0.0,12285,12626,12642,11848,7.139
1782499369.400777,3.3376996517181396,drone_1,,square,,,,,,,,,,0.004,0.038,1.015,0.022,0.04,-0.027,0.066,0.0,0.0,12515,12210,12239,12165,7.141
1782499369.594314,3.5312366485595703,drone_1,,square,,,,,,,,,,-0.002,0.051,1.014,0.06,0.052,0.005,0.066,0.0,0.0,12787,12062,11976,12254,7.14
1782499369.78441,3.721332550048828,drone_1,,square,,,,,,,,,,0.012,0.039,1.011,0.028,-0.006,0.006,0.066,0.0,0.0,12738,11918,11890,12269,7.139
1782499370.0060914,3.943013906478882,drone_1,,square,,,,,,,,,,0.007,0.049,0.999,0.05,-0.01,0.011,0.066,0.0,0.0,12836,11820,11834,12578,7.136
1782499370.2174647,4.1543872356414795,drone_1,,square,,,,,,,,,,0.013,0.047,1.068,0.003,-0.007,0.012,0.066,0.0,0.0,12738,11764,11806,12453,7.137
1782499370.4112663,4.348188877105713,drone_1,,square,,,,,,,,,,0.004,0.054,1.009,-0.196,-0.166,0.004,0.066,0.0,0.0,12515,11792,11806,12422,7.136
1782499370.6020298,4.538952350616455,drone_1,,square,,,,,,,,,,0.005,0.044,1.013,-0.227,-0.157,0.006,0.066,0.0,0.0,12484,11834,11890,12300,7.137
1782499370.7893767,4.726299285888672,drone_1,,square,,,,,,,,,,0.019,0.046,1.022,-0.03,0.077,0.015,0.066,0.0,0.0,12690,11876,11990,12345,7.131
1782499370.9823318,4.919254302978516,drone_1,,square,,,,,,,,,,0.014,0.031,1.013,0.202,0.289,0.007,0.066,0.0,0.0,12722,12150,11876,12269,7.134
1782499371.2315233,5.168445825576782,drone_1,,square,,,,,,,,,,0.009,0.034,1.063,0.056,0.086,-0.003,0.066,0.0,0.0,12578,12224,11792,12437,7.132
1782499371.4249282,5.361850738525391,drone_1,,square,,,,,,,,,,0.006,0.024,1.029,-0.125,-0.021,-0.009,0.066,0.0,0.0,12531,12180,11737,12547,7.133
1782499371.6982207,5.635143280029297,drone_1,,square,,,,,,,,,,0.009,0.024,0.997,-0.239,0.017,-0.002,0.066,0.0,0.0,12610,12048,11709,12406,7.133
1782499371.903964,5.84088659286499,drone_1,,square,,,,,,,,,,0.015,0.017,1.004,0.266,-0.014,-0.01,0.066,0.0,0.0,12610,12121,11560,12804,7.127
1782499372.141649,6.078571557998657,drone_1,,square,,,,,,,,,,0.016,-0.002,0.998,0.214,0.004,0.0,0.066,0.0,0.0,12787,12121,11389,12706,7.125
1782499372.3358364,6.272758960723877,drone_1,,square,,,,,,,,,,0.01,0.005,0.97,0.106,0.0,0.0,0.066,0.0,0.0,12642,12019,11350,12970,7.121
1782499372.5950196,6.531942129135132,drone_1,,square,,,,,,,,,,0.008,0.013,0.992,-0.077,0.059,0.02,0.066,0.0,0.0,12626,12121,11534,12594,7.124
1782499372.7649832,6.701905727386475,drone_1,,square,,,,,,,,,,0.004,0.002,0.972,0.025,0.017,0.022,0.066,0.0,0.0,12300,12453,11614,12594,7.12
1782499372.944321,6.881243467330933,drone_1,,square,,,,,,,,,,0.001,0.012,1.022,-0.038,-0.026,-0.002,0.066,0.0,0.0,12330,12406,11862,12330,7.121
1782499373.1536088,7.090531349182129,drone_1,,square,,,,,,,,,,0.011,0.014,1.015,-0.01,0.034,-0.01,0.066,0.0,0.0,12345,12269,12004,12239,7.124
1782499373.3472652,7.2841877937316895,drone_1,,square,,,,,,,,,,0.003,0.004,1.036,0.039,0.023,-0.02,0.066,0.0,0.0,12330,12315,11933,12578,7.123
1782499373.531597,7.468519449234009,drone_1,,square,,,,,,,,,,0.009,0.009,0.98,0.02,0.113,-0.009,0.066,0.0,0.0,12330,12269,11918,12239,7.119
1782499373.7093675,7.646290063858032,drone_1,,square,,,,,,,,,,-0.001,0.005,0.978,0.085,-0.025,-0.013,0.066,0.0,0.0,12468,12269,11848,12391,7.123
1782499373.9219134,7.858835935592651,drone_1,,square,,,,,,,,,,-0.001,0.009,1.04,0.036,0.015,-0.009,0.066,0.0,0.0,12376,12239,11820,12562,7.113
1782499374.111069,8.047991514205933,drone_1,,square,,,,,,,,,,0.001,0.019,1.033,-0.058,0.017,-0.006,0.066,0.0,0.0,12578,12150,11764,12610,7.115
1782499374.3025415,8.239464044570923,drone_1,,square,,,,,,,,,,0.003,0.005,1.006,0.035,-0.023,0.006,0.066,0.0,0.0,12610,12004,11764,12722,7.117
1782499374.5219886,8.458911180496216,drone_1,,square,,,,,,,,,,0.005,0.013,0.995,0.021,0.084,0.017,0.066,0.0,0.0,12224,12300,11904,12755,7.114
1782499374.725051,8.661973476409912,drone_1,,square,,,,,,,,,,0.002,0.014,0.998,-0.01,0.0,0.027,0.066,0.0,0.0,12180,12453,12033,12285,7.116
1782499375.0312905,8.968213081359863,drone_1,,square,,,,,,,,,,0.008,0.004,0.963,0.017,0.091,-0.007,0.066,0.0,0.0,11764,12690,12315,12019,7.121
1782499375.248191,9.185113668441772,drone_1,,square,,,,,,,,,,0.004,0.008,1.0,0.028,0.024,-0.028,0.066,0.0,0.0,11947,12468,12345,11876,7.115
1782499375.458336,9.395258665084839,drone_1,,square,,,,,,,,,,0.001,0.007,0.986,0.046,-0.085,-0.006,0.066,0.0,0.0,12019,12531,12330,11862,7.111
1782499375.6638052,9.600727796554565,drone_1,,square,,,,,,,,,,-0.004,0.019,1.002,0.012,-0.084,0.004,0.066,0.0,0.0,11890,12239,12610,11918,7.108
1782499375.901969,9.838891506195068,drone_1,,square,,,,,,,,,,-0.001,0.005,1.039,0.123,0.138,-0.004,0.066,0.0,0.0,11737,12360,12500,11990,7.115
1782499376.1480863,10.0850088596344,drone_1,,square,,,,,,,,,,0.006,0.015,1.003,-0.007,0.211,-0.031,0.066,0.0,0.0,12062,12269,12330,12019,7.109
1782499376.3834956,10.320418119430542,drone_1,,square,,,,,,,,,,0.005,0.012,1.059,-0.027,-0.16,-0.035,0.066,0.0,0.0,12106,12077,11723,12376,7.112
1782499376.5958905,10.53281307220459,drone_1,,square,,,,,,,,,,0.001,0.001,1.003,-0.08,-0.019,-0.034,0.066,0.0,0.0,12690,11682,11001,12987,7.113
1782499376.7939997,10.730922222137451,drone_1,,square,,,,,,,,,,-0.001,0.005,1.009,-0.096,-0.096,0.028,0.066,0.0,0.0,12642,11481,11037,13262,7.109
1782499376.9911678,10.928090333938599,drone_1,,square,,,,,,,,,,0.008,-0.003,0.979,0.001,0.116,0.044,0.066,0.0,0.0,12578,11668,11086,13020,7.113
1782499377.2101886,11.147111177444458,drone_1,,square,,,,,,,,,,-0.002,0.0,1.034,0.142,-0.023,0.092,0.066,0.0,0.0,11655,12285,11876,12210,7.118
1782499377.45896,11.395882606506348,drone_1,,square,,,,,,,,,,-0.002,0.0,1.022,0.384,0.064,-0.066,0.066,0.0,0.0,11918,12468,11441,12165,7.115
1782499377.721057,11.657979488372803,drone_1,,square,,,,,,,,,,0.0,0.01,0.977,0.286,-0.003,0.028,0.066,0.0,0.0,11520,12578,11641,12315,7.11
1782499377.894238,11.831160545349121,drone_1,,square,,,,,,,,,,0.0,0.005,0.981,-0.374,0.128,-0.018,0.066,0.0,0.0,11750,12771,11961,12165,7.108
1782499378.083057,12.019979476928711,drone_1,,square,,,,,,,,,,-0.002,0.018,1.058,-0.203,0.047,-0.051,0.066,0.0,0.0,12004,12500,11325,12360,7.106
1782499378.271097,12.208019495010376,drone_1,,square,,,,,,,,,,-0.02,0.02,0.947,-0.185,-0.272,0.044,0.066,0.0,0.0,11961,12706,11764,11723,7.111
1782499378.44666,12.383582592010498,drone_1,,square,,,,,,,,,,-0.002,0.011,0.972,0.227,-0.532,0.007,0.066,0.0,0.0,11520,13054,12180,11876,7.102
1782499378.6376097,12.574532270431519,drone_1,,square,,,,,,,,,,0.006,0.018,0.989,0.169,0.187,-0.057,0.066,0.0,0.0,11641,13106,11682,12300,7.1
1782499378.841892,12.778814554214478,drone_1,,square,,,,,,,,,,0.014,0.012,0.985,-0.1,0.388,-0.088,0.066,0.0,0.0,12330,12500,11111,12531,7.104
1782499379.0341973,12.97111988067627,drone_1,,square,,,,,,,,,,0.021,0.009,0.986,0.074,0.196,-0.049,0.066,0.0,0.0,12738,11848,10504,13297,7.109
1782499379.2427485,13.179671049118042,drone_1,,square,,,,,,,,,,0.022,0.016,1.057,0.063,0.057,0.012,0.066,0.0,0.0,13245,11641,9803,13568,7.099
1782499379.4427314,13.379653930664062,drone_1,,square,,,,,,,,,,0.023,0.017,0.996,-0.128,-0.308,0.057,0.066,0.0,0.0,12870,11235,10162,13513,7.109
1782499379.6376767,13.574599266052246,drone_1,,square,,,,,,,,,,0.038,0.0,0.943,0.076,0.165,0.038,0.066,0.0,0.0,12787,11441,10060,13315,7.112
1782499379.8519306,13.788853168487549,drone_1,,square,,,,,,,,,,0.03,0.011,0.983,-0.068,0.075,0.029,0.066,0.0,0.0,12886,11494,10341,13037,7.104
1782499380.0602252,13.997147798538208,drone_1,,square,,,,,,,,,,0.016,0.012,0.958,0.088,-0.083,0.012,0.066,0.0,0.0,12853,11574,10460,13020,7.106
1782499380.271856,14.208778619766235,drone_1,,square,,,,,,,,,,0.02,0.009,1.001,-0.002,-0.004,0.003,0.066,0.0,0.0,12674,11507,10741,12853,7.106
1782499380.477738,14.414660453796387,drone_1,,square,,,,,,,,,,0.016,0.004,0.995,0.111,0.137,-0.003,0.066,0.0,0.0,12562,11806,10695,12722,7.103
1782499380.7169466,14.653869152069092,drone_1,,square,,,,,,,,,,0.023,0.001,0.979,-0.054,-0.031,-0.013,0.066,0.0,0.0,12755,11792,10706,12903,7.103
1782499380.9480615,14.884984016418457,drone_1,,square,,,,,,,,,,0.025,0.01,1.003,0.046,0.045,-0.002,0.066,0.0,0.0,12820,11990,10741,12936,7.106
1782499381.174323,15.11124563217163,drone_1,,square,,,,,,,,,,0.025,0.002,1.016,0.044,-0.185,-0.034,0.066,0.0,0.0,12836,11778,10570,13586,7.095
1782499381.381778,15.318700551986694,drone_1,,square,,,,,,,,,,0.03,-0.015,1.042,-0.116,0.026,0.086,0.066,0.0,0.0,12406,12091,11286,12903,7.103
1782499381.5977879,15.53471040725708,drone_1,,square,,,,,,,,,,0.02,-0.002,1.069,0.12,0.313,-0.038,0.066,0.0,0.0,12195,12254,10952,12804,7.094
1782499381.8222387,15.759161233901978,drone_1,,square,,,,,,,,,,0.025,0.0,1.007,0.018,-0.089,-0.075,0.066,0.0,0.0,12836,11750,10493,13404,7.099
1782499382.0101326,15.947055101394653,drone_1,,square,,,,,,,,,,0.018,-0.006,1.052,0.042,0.105,0.012,0.066,0.0,0.0,13140,11848,10131,13245,7.098
1782499382.2423594,16.17928194999695,drone_1,,square,,,,,,,,,,0.029,0.011,0.998,-0.059,-0.198,0.036,0.066,0.0,0.0,13003,11764,10706,13458,7.091
1782499382.4369495,16.37387204170227,drone_1,,square,,,,,,,,,,0.037,0.011,0.989,0.095,0.14,0.029,0.066,0.0,0.0,12722,11961,10857,13037,7.093
1782499382.6286447,16.56556725502014,drone_1,,square,,,,,,,,,,0.017,0.003,1.03,0.062,0.144,-0.052,0.066,0.0,0.0,13245,11534,10309,13440,7.09
1782499382.8446848,16.781607389450073,drone_1,,square,,,,,,,,,,0.021,-0.002,1.056,0.006,-0.033,0.014,0.066,0.0,0.0,13089,11376,10493,13157,7.091
1782499383.0862553,17.02317786216736,drone_1,,square,,,,,,,,,,0.035,0.007,1.031,0.029,0.126,0.03,0.066,0.0,0.0,12970,11682,10893,12820,7.098
1782499383.2908666,17.227789163589478,drone_1,,square,,,,,,,,,,0.014,0.0,0.985,0.182,-0.069,0.021,0.066,0.0,0.0,12626,12091,11074,12903,7.096
1782499383.466354,17.403276443481445,drone_1,,square,,,,,,,,,,0.019,0.003,1.011,-0.067,-0.049,0.017,0.066,0.0,0.0,12210,12422,11507,12626,7.089
1782499383.70708,17.644002437591553,drone_1,,square,,,,,,,,,,0.019,0.011,0.985,-0.037,0.093,-0.018,0.066,0.0,0.0,11976,12254,11441,12254,7.096
1782499383.9066377,17.843560218811035,drone_1,,square,,,,,,,,,,0.023,0.017,1.048,0.013,0.005,-0.027,0.066,0.0,0.0,12004,12269,11587,12300,7.096
1782499384.130947,18.067869663238525,drone_1,,square,,,,,,,,,,0.027,0.005,0.997,0.077,0.348,-0.037,0.066,0.0,0.0,12048,12106,11467,12531,7.096
1782499384.3228242,18.25974678993225,drone_1,,square,,,,,,,,,,0.018,0.006,0.989,-0.054,0.262,-0.006,0.066,0.0,0.0,12285,12121,11325,12787,7.091
1782499384.5132015,18.45012402534485,drone_1,,square,,,,,,,,,,0.002,0.009,0.978,-0.002,-0.364,-0.023,0.066,0.0,0.0,12547,12004,11481,13175,7.092
1782499384.7174942,18.654416799545288,drone_1,,square,,,,,,,,,,0.002,0.022,0.968,-0.162,-0.381,0.098,0.066,0.0,0.0,12180,12300,12500,12787,7.075
1782499384.9382699,18.875192403793335,drone_1,,square,,,,,,,,,,-0.006,0.011,1.018,0.234,0.143,0.057,0.066,0.0,0.0,11834,13003,12820,11820,7.082
1782499385.163003,19.09992551803589,drone_1,,square,,,,,,,,,,0.002,0.028,1.056,0.403,-0.076,-0.054,0.066,0.0,0.0,11614,13123,12706,11976,7.078
1782499385.3747976,19.31172013282776,drone_1,,square,,,,,,,,,,0.003,0.02,1.029,-0.005,0.199,-0.054,0.066,0.0,0.0,11848,13157,12224,11961,7.082
1782499385.5713136,19.508236169815063,drone_1,,square,,,,,,,,,,-0.001,0.035,1.023,-0.4,-0.131,-0.019,0.066,0.0,0.0,12224,12484,12121,11961,7.09
1782499385.7689207,19.705843210220337,drone_1,,square,,,,,,,,,,0.012,0.033,1.084,-0.19,-0.023,-0.001,0.066,0.0,0.0,12048,12195,12121,11947,7.086
1782499386.0181656,19.955088138580322,drone_1,,square,,,,,,,,,,0.017,0.036,0.993,0.087,0.135,-0.003,0.066,0.0,0.0,12531,12106,11792,12285,7.084
1782499386.2513754,20.188297986984253,drone_1,,square,,,,,,,,,,0.018,0.039,1.029,0.033,0.013,0.012,0.066,0.0,0.0,12345,12135,11778,12422,7.082
1782499386.4460359,20.38295841217041,drone_1,,square,,,,,,,,,,0.005,0.031,0.971,0.0,0.006,0.012,0.066,0.0,0.0,12562,12062,11918,12391,7.084
1782499386.6868622,20.62378478050232,drone_1,,square,,,,,,,,,,0.0,0.024,1.002,0.149,-0.018,0.009,0.066,0.0,0.0,12500,12239,11976,12360,7.075
1782499386.8749473,20.811869859695435,drone_1,,square,,,,,,,,,,0.012,0.022,1.006,0.013,0.096,-0.012,0.066,0.0,0.0,12820,12135,11820,12610,7.076
1782499387.080127,21.017049551010132,drone_1,,square,,,,,,,,,,0.009,0.032,1.016,0.011,-0.096,0.001,0.066,0.0,0.0,12771,12062,11904,12771,7.075
1782499387.2981858,21.235108375549316,drone_1,,square,,,,,,,,,,0.007,0.02,1.001,0.077,0.151,0.014,0.066,0.0,0.0,12562,12300,11947,12531,7.073
1782499387.5005803,21.43750286102295,drone_1,,square,,,,,,,,,,0.008,0.034,0.983,-0.078,-0.035,-0.021,0.066,0.0,0.0,12738,12239,11862,12626,7.072
1782499387.7170203,21.653942823410034,drone_1,,square,,,,,,,,,,0.01,0.028,1.034,0.042,0.051,-0.029,0.066,0.0,0.0,12853,12004,11560,12738,7.078
1782499387.9280958,21.865018367767334,drone_1,,square,,,,,,,,,,-0.002,0.035,1.055,-0.031,-0.056,-0.022,0.066,0.0,0.0,13020,11723,11376,12936,7.081
1782499388.3852513,22.322173833847046,drone_1,,square,,,,,,,,,,-0.002,0.028,0.99,0.009,0.07,0.013,0.066,0.0,0.0,13262,11467,11402,12903,7.074
1782499388.5705192,22.507441759109497,drone_1,,square,,,,,,,,,,0.005,0.03,1.008,0.149,-0.021,0.008,0.066,0.0,0.0,13054,11494,11467,13020,7.075
1782499388.7605057,22.697428226470947,drone_1,,square,,,,,,,,,,0.007,0.039,1.046,-0.054,0.038,-0.007,0.066,0.0,0.0,13351,11376,11402,12903,7.075
1782499388.9587116,22.895634174346924,drone_1,,square,,,,,,,,,,0.001,0.04,0.946,0.115,-0.017,-0.021,0.066,0.0,0.0,13458,11389,11350,13071,7.069
1782499389.1691258,23.106048345565796,drone_1,,square,,,,,,,,,,-0.001,0.042,0.985,0.012,0.009,-0.003,0.066,0.0,0.0,13605,11160,11273,13227,7.069
1782499389.3439236,23.280846118927002,drone_1,,square,,,,,,,,,,-0.001,0.043,1.01,0.039,0.029,0.024,0.066,0.0,0.0,13550,11299,11350,12970,7.073
1782499389.527651,23.464573621749878,drone_1,,square,,,,,,,,,,-0.007,0.042,0.987,0.04,-0.026,0.009,0.066,0.0,0.0,13297,11376,11520,12936,7.069
1782499389.715608,23.652530431747437,drone_1,,square,,,,,,,,,,-0.004,0.05,1.054,-0.004,0.055,0.001,0.066,0.0,0.0,13368,11428,11547,12919,7.066
1782499389.9024732,23.839395761489868,drone_1,,square,,,,,,,,,,0.001,0.054,1.025,-0.018,0.04,-0.011,0.066,0.0,0.0,13422,11350,11534,12903,7.074
1782499390.0955899,24.032512426376343,drone_1,,square,,,,,,,,,,0.002,0.048,1.05,0.003,-0.074,-0.022,0.066,0.0,0.0,13495,11135,11415,13071,7.073
1782499390.2985017,24.235424280166626,drone_1,,square,,,,,,,,,,0.0,0.063,0.996,-0.008,0.113,-0.003,0.066,0.0,0.0,13550,11086,11312,13054,7.074
1782499390.497925,24.434847593307495,drone_1,,square,,,,,,,,,,0.007,0.046,1.096,0.01,0.018,0.0,0.066,0.0,0.0,13458,10976,11350,13071,7.065
1782499390.6870406,24.623963117599487,drone_1,,square,,,,,,,,,,0.003,0.047,1.028,0.06,0.043,0.011,0.066,0.0,0.0,13386,11135,11376,12919,7.069
1782499390.886533,24.823455572128296,drone_1,,square,,,,,,,,,,-0.003,0.058,1.014,-0.085,-0.047,-0.009,0.066,0.0,0.0,13368,11086,11428,13175,7.064
1782499391.0974498,25.034372329711914,drone_1,,square,,,,,,,,,,0.006,0.054,1.008,-0.217,0.107,0.011,0.066,0.0,0.0,13297,11261,11454,12987,7.07
1782499391.292423,25.229345560073853,drone_1,,square,,,,,,,,,,-0.004,0.046,1.001,-0.251,-0.068,0.006,0.066,0.0,0.0,13245,11261,11668,12870,7.067
1782499391.484582,25.421504497528076,drone_1,,square,,,,,,,,,,0.008,0.051,1.023,0.347,0.075,-0.005,0.066,0.0,0.0,13106,11560,11641,12853,7.066
1782499391.6687994,25.605721950531006,drone_1,,square,,,,,,,,,,0.005,0.035,1.024,0.297,0.009,-0.013,0.066,0.0,0.0,13020,11547,11587,12987,7.067
1782499391.871136,25.808058500289917,drone_1,,square,,,,,,,,,,0.0,0.021,0.984,0.005,0.227,-0.03,0.066,0.0,0.0,13262,11467,11467,13054,7.06
1782499392.0817149,26.01863741874695,drone_1,,square,,,,,,,,,,-0.003,0.035,1.035,-0.04,0.227,-0.007,0.066,0.0,0.0,13440,11389,11376,13262,7.064
1782499392.281396,26.218318462371826,drone_1,,square,,,,,,,,,,-0.018,0.034,1.003,0.05,0.009,0.004,0.066,0.0,0.0,13623,11389,11402,13089,7.058
1782499392.4924676,26.42939019203186,drone_1,,square,,,,,,,,,,-0.019,0.02,1.037,0.047,-0.343,0.002,0.066,0.0,0.0,13192,11098,11389,13404,7.063
1782499392.6768134,26.613735914230347,drone_1,,square,,,,,,,,,,-0.024,0.024,0.988,0.011,-0.101,-0.01,0.066,0.0,0.0,13210,10905,11111,13661,7.058
1782499392.8716736,26.80859613418579,drone_1,,square,,,,,,,,,,-0.001,0.017,1.018,-0.033,0.046,0.0,0.066,0.0,0.0,13422,10857,10917,13698,7.062
1782499393.0540981,26.991020679473877,drone_1,,square,,,,,,,,,,-0.005,0.011,0.977,-0.085,0.06,0.011,0.066,0.0,0.0,13245,10952,10893,13661,7.056
1782499393.2345881,27.171510696411133,drone_1,,square,,,,,,,,,,-0.008,0.027,1.018,-0.055,0.003,0.014,0.066,0.0,0.0,13404,11025,10952,13698,7.057
1782499393.5271418,27.464064359664917,drone_1,,square,,,,,,,,,,-0.002,0.017,0.963,-0.02,-0.026,0.001,0.066,0.0,0.0,13333,11123,11013,13774,7.056
1782499393.8772354,27.814157962799072,drone_1,,square,,,,,,,,,,-0.008,0.009,1.001,0.045,0.02,-0.008,0.066,0.0,0.0,13351,11086,10869,13774,7.058
1782499394.2099626,28.14688515663147,drone_1,,square,,,,,,,,,,-0.008,0.018,0.963,0.0,0.007,0.012,0.066,0.0,0.0,13210,11325,11123,13568,7.055
1782499394.5444224,28.4813449382782,drone_1,,square,,,,,,,,,,-0.007,0.013,1.047,-0.083,-0.002,-0.001,0.066,0.0,0.0,12886,11614,11312,13368,7.055
1782499394.9644938,28.901416301727295,drone_1,,square,,,,,,,,,,0.003,0.015,1.017,0.036,0.024,-0.002,0.066,0.0,0.0,12722,11723,11547,13192,7.052
1782499395.4444275,29.38135004043579,drone_1,,square,,,,,,,,,,-0.001,0.018,1.002,0.067,0.004,0.008,0.066,0.0,0.0,12610,11976,11947,12500,7.055
1782499395.7981942,29.735116720199585,drone_1,,square,,,,,,,,,,0.001,0.011,0.992,0.091,-0.005,-0.01,0.066,0.0,0.0,12254,12254,12180,12658,7.054
1782499395.9861195,29.923042058944702,drone_1,,square,,,,,,,,,,0.005,0.013,1.023,-0.034,0.043,-0.024,0.066,0.0,0.0,12254,12300,12077,12562,7.053
1782499396.1845348,30.12145733833313,drone_1,,square,,,,,,,,,,0.006,0.027,1.027,-0.047,-0.043,-0.026,0.066,0.0,0.0,12610,11848,12033,12468,7.06
1782499396.4033146,30.340237140655518,drone_1,,square,,,,,,,,,,0.01,0.025,1.027,0.19,0.087,-0.02,0.066,0.0,0.0,12626,11792,11750,12836,7.061
1782499396.5999465,30.536869049072266,drone_1,,square,,,,,,,,,,0.006,0.021,0.984,0.039,0.088,0.008,0.066,0.0,0.0,12626,11947,11627,12903,7.051
1782499396.7883422,30.72526478767395,drone_1,,square,,,,,,,,,,0.006,0.016,0.982,-0.078,-0.063,0.02,0.066,0.0,0.0,12771,11990,11668,12674,7.053
1782499396.9762697,30.91319227218628,drone_1,,square,,,,,,,,,,0.007,0.02,1.013,0.0,-0.073,0.004,0.066,0.0,0.0,12500,11990,11764,12610,7.054
1782499397.178337,31.115259647369385,drone_1,,square,,,,,,,,,,0.003,0.023,1.038,0.006,0.001,-0.012,0.066,0.0,0.0,12330,11976,11862,12468,7.055
1782499397.3634472,31.30036973953247,drone_1,,square,,,,,,,,,,0.003,0.028,0.973,0.047,0.098,-0.001,0.066,0.0,0.0,12285,12106,11834,12453,7.057
1782499397.562405,31.499327659606934,drone_1,,square,,,,,,,,,,-0.001,0.023,1.038,0.05,-0.203,0.008,0.066,0.0,0.0,12391,12269,11918,12315,7.056
1782499397.7512608,31.688183307647705,drone_1,,square,,,,,,,,,,0.006,0.023,1.002,0.031,-0.344,0.004,0.066,0.0,0.0,12224,12531,12019,12239,7.06
1782499397.9401333,31.877055883407593,drone_1,,square,,,,,,,,,,0.025,0.016,0.991,0.093,0.116,-0.009,0.066,0.0,0.0,12033,12531,12004,12210,7.058
1782499398.127908,32.06483054161072,drone_1,,square,,,,,,,,,,0.008,0.015,1.017,-0.028,0.437,-0.038,0.066,0.0,0.0,12422,12626,11641,12106,7.055
1782499398.303147,32.24006962776184,drone_1,,square,,,,,,,,,,0.001,0.017,1.065,0.08,0.086,-0.022,0.066,0.0,0.0,12610,12594,11337,12360,7.054
1782499398.5044706,32.44139313697815,drone_1,,square,,,,,,,,,,0.01,0.027,0.989,-0.23,-0.224,0.002,0.066,0.0,0.0,12626,12376,11507,12453,7.058
1782499398.6819656,32.61888813972473,drone_1,,square,,,,,,,,,,0.022,0.022,1.065,-0.116,-0.042,0.028,0.066,0.0,0.0,12422,12300,11428,12376,7.06
1782499398.8569744,32.79389691352844,drone_1,,square,,,,,,,,,,0.022,0.012,1.016,-0.079,-0.039,0.02,0.066,0.0,0.0,12468,12376,11600,12269,7.056
1782499399.0870047,33.023927211761475,drone_1,,square,,,,,,,,,,0.021,0.0,1.024,0.2,0.166,-0.02,0.066,0.0,0.0,12626,12285,11286,12547,7.053
1782499399.3120224,33.248944997787476,drone_1,,square,,,,,,,,,,0.029,0.001,1.007,0.112,0.234,-0.004,0.066,0.0,0.0,12690,12135,11261,12610,7.057
1782499399.514146,33.45106863975525,drone_1,,square,,,,,,,,,,0.019,0.002,1.007,0.071,-0.004,0.015,0.066,0.0,0.0,12610,12224,11534,12453,7.047
1782499399.7042904,33.641212940216064,drone_1,,square,,,,,,,,,,0.013,-0.006,1.055,0.053,-0.068,-0.013,0.066,0.0,0.0,12706,12077,11481,12642,7.051
1782499399.9183228,33.85524535179138,drone_1,,square,,,,,,,,,,0.022,0.009,0.997,0.066,-0.034,-0.009,0.066,0.0,0.0,12870,11961,11235,12919,7.046
1782499400.1218374,34.058759927749634,drone_1,,square,,,,,,,,,,0.014,0.006,1.026,-0.028,-0.042,0.029,0.066,0.0,0.0,12738,12077,11560,12755,7.051
1782499400.3239663,34.26088881492615,drone_1,,square,,,,,,,,,,0.01,0.014,1.036,-0.077,0.08,0.02,0.066,0.0,0.0,12706,12180,11750,12578,7.051
1782499400.5344403,34.471362829208374,drone_1,,square,,,,,,,,,,0.014,0.007,0.963,0.054,-0.09,0.005,0.066,0.0,0.0,12531,12285,11947,12345,7.055
1782499400.732344,34.66926646232605,drone_1,,square,,,,,,,,,,0.011,0.013,0.969,0.07,0.085,-0.006,0.066,0.0,0.0,12422,12484,11862,12077,7.051
1782499400.930363,34.86728549003601,drone_1,,square,,,,,,,,,,0.008,0.02,0.969,0.138,-0.08,-0.003,0.066,0.0,0.0,12210,12547,12135,12135,7.05
1782499401.1450791,35.08200168609619,drone_1,,square,,,,,,,,,,0.012,0.019,0.978,-0.083,0.088,-0.022,0.066,0.0,0.0,12300,12376,11961,12121,7.055
1782499401.3909862,35.327908754348755,drone_1,,square,,,,,,,,,,0.013,0.008,0.983,0.023,0.015,-0.005,0.066,0.0,0.0,12254,12376,11947,12091,7.049
1782499401.695408,35.632330656051636,drone_1,,square,,,,,,,,,,0.016,0.02,1.003,-0.027,0.042,-0.005,0.066,0.0,0.0,12376,12515,12077,12091,7.048
1782499401.8794968,35.81641936302185,drone_1,,square,,,,,,,,,,0.01,0.005,1.016,0.061,-0.001,0.007,0.066,0.0,0.0,12210,12658,12239,12048,7.046
1782499402.3404021,36.27732467651367,drone_1,,square,,,,,,,,,,0.01,0.011,1.005,-0.042,-0.004,-0.003,0.066,0.0,0.0,12019,12787,12345,12285,7.048
1782499402.5299065,36.46682906150818,drone_1,,square,,,,,,,,,,0.009,0.006,1.029,0.17,0.127,-0.021,0.066,0.0,0.0,12406,12239,11862,12658,7.047
1782499402.711513,36.64843559265137,drone_1,,square,,,,,,,,,,0.014,0.006,1.011,0.247,0.316,0.009,0.066,0.0,0.0,12269,12285,11668,12562,7.047
1782499402.8933413,36.83026385307312,drone_1,,square,,,,,,,,,,0.007,0.015,1.016,-0.004,0.15,0.005,0.066,0.0,0.0,12345,12300,11600,12594,7.048
1782499403.0925367,37.02945923805237,drone_1,,square,,,,,,,,,,-0.002,0.012,1.008,-0.221,-0.278,0.005,0.066,0.0,0.0,12531,12062,11834,12690,7.043
1782499403.3034642,37.240386724472046,drone_1,,square,,,,,,,,,,0.001,0.023,0.993,-0.139,-0.161,0.009,0.066,0.0,0.0,12406,11961,12091,12578,7.047
1782571934.4262884,0.5541889667510986,drone_1,,hover,,,,,,,,,,0.014,0.009,1.056,-0.001,0.082,-0.017,0.0,0.0,0.0,12578,12468,11976,12642,7.646
1782571934.968265,1.096165657043457,drone_1,,hover,,,,,,,,,,0.001,0.028,0.984,-0.024,-0.008,-0.004,0.0,0.0,0.0,12642,12706,12091,12610,7.638
1782571935.483456,1.611356496810913,drone_1,,hover,,,,,,,,,,0.017,0.022,0.998,-0.006,0.036,-0.011,0.0,0.0,0.0,12610,12626,12195,12547,7.638
1782571935.8065255,1.9344260692596436,drone_1,,hover,,,,,,,,,,0.017,0.011,1.066,0.009,0.036,0.009,0.0,0.0,0.0,12626,12787,12254,12422,7.622
1782571936.1257398,2.2536404132843018,drone_1,,hover,,,,,,,,,,0.011,0.017,0.974,0.077,-0.006,-0.008,0.0,0.0,0.0,12360,12903,12269,12210,7.619
1782571936.4271727,2.5550732612609863,drone_1,,hover,,,,,,,,,,0.015,0.013,1.004,-0.023,0.088,-0.004,0.0,0.0,0.0,12500,12886,12254,12531,7.617
1782571936.6701038,2.798004388809204,drone_1,,hover,,,,,,,,,,0.008,0.018,1.031,0.029,-0.015,-0.019,0.0,0.0,0.0,12562,12642,12135,12594,7.612
1782571936.9134328,3.0413334369659424,drone_1,,hover,,,,,,,,,,0.0,0.017,1.001,0.0,-0.014,0.007,0.0,0.0,0.0,12610,12690,12254,12547,7.606
1782571937.1556797,3.2835803031921387,drone_1,,hover,,,,,,,,,,0.022,0.014,1.023,0.028,0.015,0.0,0.0,0.0,0.0,12594,12804,12376,12610,7.613
1782571937.4007335,3.5286340713500977,drone_1,,hover,,,,,,,,,,0.01,0.003,1.044,0.04,-0.011,-0.02,0.0,0.0,0.0,12722,12642,12254,12820,7.604
1782571937.6331098,3.7610104084014893,drone_1,,hover,,,,,,,,,,0.001,0.011,0.965,0.018,0.05,-0.009,0.0,0.0,0.0,12870,12594,11976,12706,7.605
1782571937.8932807,4.021181344985962,drone_1,,hover,,,,,,,,,,0.017,0.037,0.96,-0.031,0.015,0.02,0.0,0.0,0.0,12594,12690,12195,12285,7.602
1782571938.148803,4.276703596115112,drone_1,,hover,,,,,,,,,,0.02,0.016,1.03,0.085,-0.035,0.011,0.0,0.0,0.0,12150,13227,12594,12135,7.599
1782571938.3754392,4.503339767456055,drone_1,,hover,,,,,,,,,,0.025,-0.003,1.046,-0.004,0.088,-0.038,0.0,0.0,0.0,12285,12970,12285,12453,7.596
1782571938.7069833,4.83488392829895,drone_1,,hover,,,,,,,,,,0.012,0.022,1.019,-0.015,-0.068,-0.015,0.0,0.0,0.0,12330,12836,12285,12658,7.597
1782571938.9720342,5.099934816360474,drone_1,,hover,,,,,,,,,,0.02,0.015,1.002,0.024,0.018,0.006,0.0,0.0,0.0,12594,12804,12077,12437,7.589
1782571939.207419,5.335319519042969,drone_1,,hover,,,,,,,,,,0.011,0.016,1.029,0.087,-0.045,0.018,0.0,0.0,0.0,12547,12674,12239,12422,7.589
1782571939.438728,5.566628694534302,drone_1,,hover,,,,,,,,,,-0.002,0.0,1.022,0.04,0.103,0.01,0.0,0.0,0.0,12422,12919,12300,12315,7.581
1782571939.6792638,5.807164430618286,drone_1,,hover,,,,,,,,,,0.019,0.012,1.078,0.08,-0.091,-0.017,0.0,0.0,0.0,12547,12787,12315,12330,7.585
1782571939.9464793,6.074379920959473,drone_1,,hover,,,,,,,,,,0.018,0.033,1.04,0.035,0.116,0.002,0.0,0.0,0.0,12547,12853,12315,12547,7.573
1782571940.2142987,6.342199325561523,drone_1,,hover,,,,,,,,,,0.019,0.022,1.06,0.031,-0.044,0.011,0.0,0.0,0.0,12453,12820,12315,12391,7.583
1782571940.4850245,6.612925052642822,drone_1,,hover,,,,,,,,,,0.008,0.018,1.019,-0.041,0.05,0.02,0.0,0.0,0.0,12547,13037,12453,12091,7.575
1782571940.7923865,6.920287132263184,drone_1,,hover,,,,,,,,,,0.031,0.016,1.029,0.014,-0.044,-0.006,0.0,0.0,0.0,12468,12870,12594,12210,7.564
1782571941.077651,7.205551624298096,drone_1,,hover,,,,,,,,,,0.021,0.03,1.007,-0.004,0.036,-0.019,0.0,0.0,0.0,12706,12594,12300,12422,7.563
1782571941.4321885,7.560089111328125,drone_1,,hover,,,,,,,,,,0.01,0.025,0.985,-0.022,0.059,0.022,0.0,0.0,0.0,12804,12626,12406,12453,7.558
1782571941.7317367,7.859637260437012,drone_1,,hover,,,,,,,,,,0.006,0.02,0.949,0.031,-0.026,0.013,0.0,0.0,0.0,12531,12870,12515,12391,7.561
1782571941.9762912,8.104191780090332,drone_1,,hover,,,,,,,,,,0.012,0.016,0.95,-0.02,0.055,-0.002,0.0,0.0,0.0,12674,12870,12626,12210,7.557
1782571942.2672975,8.395198106765747,drone_1,,hover,,,,,,,,,,0.002,0.043,1.012,0.111,0.026,0.0,0.0,0.0,0.0,12376,12886,12547,12285,7.56
1782571942.5029342,8.630834817886353,drone_1,,hover,,,,,,,,,,0.024,0.028,0.953,-0.005,0.018,-0.014,0.0,0.0,0.0,12453,12771,12360,12406,7.553
1782571942.764362,8.892262697219849,drone_1,,hover,,,,,,,,,,0.02,0.023,1.025,0.017,0.024,-0.004,0.0,0.0,0.0,12453,12970,12330,12254,7.549
1782571943.0303442,9.158244848251343,drone_1,,hover,,,,,,,,,,0.014,0.019,0.96,-0.012,-0.028,-0.015,0.0,0.0,0.0,12239,12870,12406,12285,7.549
1782571943.3619623,9.48986291885376,drone_1,,hover,,,,,,,,,,0.014,0.014,1.027,0.09,0.017,-0.004,0.0,0.0,0.0,12376,12936,12285,12315,7.544
1782571943.6797056,9.807606220245361,drone_1,,hover,,,,,,,,,,-0.001,0.029,0.975,-0.036,-0.018,0.005,0.0,0.0,0.0,12500,12886,12594,12484,7.549
1782571943.943109,10.071009635925293,drone_1,,hover,,,,,,,,,,0.033,0.014,1.061,0.076,0.038,-0.007,0.0,0.0,0.0,12547,12903,12453,12594,7.543
1782571944.193437,10.321337699890137,drone_1,,hover,,,,,,,,,,0.008,0.021,1.0,-0.111,0.143,-0.013,0.0,0.0,0.0,12706,12953,12285,12610,7.539
1782571944.4650097,10.592910289764404,drone_1,,hover,,,,,,,,,,0.018,-0.011,1.019,0.055,-0.078,-0.01,0.0,0.0,0.0,12886,12610,11990,12970,7.54
1782571944.7198284,10.847728967666626,drone_1,,hover,,,,,,,,,,0.023,0.009,0.981,-0.015,0.103,-0.014,0.0,0.0,0.0,13297,12254,11668,13157,7.537
1782571945.0321152,11.16001582145691,drone_1,,hover,,,,,,,,,,0.004,0.021,0.973,-0.014,-0.107,0.011,0.0,0.0,0.0,13351,12195,11682,13351,7.534
1782571945.3506675,11.478568077087402,drone_1,,hover,,,,,,,,,,0.01,0.024,0.998,-0.08,0.089,0.01,0.0,0.0,0.0,13140,12033,11778,13089,7.532
1782571945.6290329,11.756933450698853,drone_1,,hover,,,,,,,,,,0.006,0.02,0.973,0.082,0.0,0.001,0.0,0.0,0.0,12919,12224,11961,12886,7.532
1782571945.8809485,12.008849143981934,drone_1,,hover,,,,,,,,,,0.017,0.017,0.995,0.023,0.09,-0.012,0.0,0.0,0.0,12886,12300,11933,12853,7.533
1782571946.2073073,12.33520793914795,drone_1,,hover,,,,,,,,,,0.004,0.015,1.023,-0.044,-0.102,0.003,0.0,0.0,0.0,12787,12484,12033,12870,7.524
1782571946.4789348,12.60683536529541,drone_1,,hover,,,,,,,,,,0.028,0.02,1.021,0.002,0.088,-0.02,0.0,0.0,0.0,12886,12376,11918,12853,7.529
1782571946.7639012,12.891801834106445,drone_1,,hover,,,,,,,,,,0.005,0.003,1.028,0.009,-0.046,0.02,0.0,0.0,0.0,12626,12594,12091,12706,7.529
1782571947.0886092,13.216509819030762,drone_1,,hover,,,,,,,,,,0.009,0.014,1.084,0.023,0.085,-0.003,0.0,0.0,0.0,12787,12515,11890,12690,7.526
1782571947.3719654,13.499866008758545,drone_1,,hover,,,,,,,,,,0.02,0.019,0.963,0.006,-0.077,0.008,0.0,0.0,0.0,12642,12562,12019,12626,7.517
1782571947.6827724,13.810672998428345,drone_1,,hover,,,,,,,,,,0.004,0.003,0.984,-0.005,0.093,0.003,0.0,0.0,0.0,12437,12787,12210,12547,7.521
1782571947.9456124,14.07351303100586,drone_1,,hover,,,,,,,,,,0.004,0.019,0.978,-0.015,0.04,0.02,0.0,0.0,0.0,12300,12953,12690,12091,7.513
1782571948.2185886,14.346489191055298,drone_1,,hover,,,,,,,,,,0.021,0.027,1.035,0.103,0.002,-0.022,0.0,0.0,0.0,12315,12936,12853,12210,7.513
1782571948.5027194,14.630620002746582,drone_1,,hover,,,,,,,,,,0.015,0.02,1.022,-0.007,0.066,-0.011,0.0,0.0,0.0,12422,13089,12903,12033,7.508
1782571948.8059995,14.933900117874146,drone_1,,hover,,,,,,,,,,0.021,0.019,0.987,0.013,0.058,0.013,0.0,0.0,0.0,12239,13192,13003,11890,7.508
1782571949.1345572,15.262457847595215,drone_1,,hover,,,,,,,,,,0.022,0.035,0.969,0.047,0.003,-0.02,0.0,0.0,0.0,12422,13227,12903,12077,7.503
1782571949.3821533,15.510053873062134,drone_1,,hover,,,,,,,,,,0.008,0.033,1.017,0.056,0.025,-0.01,0.0,0.0,0.0,12300,12953,12755,12121,7.504
1782571949.6313164,15.759217023849487,drone_1,,hover,,,,,,,,,,0.007,0.024,1.087,0.055,-0.011,0.011,0.0,0.0,0.0,12515,12953,12626,12254,7.507
1782571949.8714714,15.999372005462646,drone_1,,hover,,,,,,,,,,0.017,0.043,0.963,-0.031,0.044,0.0,0.0,0.0,0.0,12594,12870,12674,12150,7.503
1782571950.1279826,16.25588321685791,drone_1,,hover,,,,,,,,,,0.01,0.022,0.981,0.142,-0.001,-0.022,0.0,0.0,0.0,12453,12853,12453,12391,7.5
1782571950.3825197,16.510420322418213,drone_1,,hover,,,,,,,,,,0.02,0.01,1.056,-0.082,0.087,-0.008,0.0,0.0,0.0,12531,12690,12500,12315,7.504
1782571950.6940107,16.821911334991455,drone_1,,hover,,,,,,,,,,0.01,0.029,1.016,0.062,-0.071,-0.014,0.0,0.0,0.0,12870,12285,12062,12706,7.501
1782571950.9778895,17.10579013824463,drone_1,,hover,,,,,,,,,,0.008,0.034,1.02,0.029,0.05,0.002,0.0,0.0,0.0,12953,12437,11918,12820,7.499
1782571951.242202,17.370102643966675,drone_1,,hover,,,,,,,,,,0.022,0.008,1.037,-0.069,-0.054,0.005,0.0,0.0,0.0,13089,12376,12004,12953,7.49
1782571951.5378737,17.66577434539795,drone_1,,hover,,,,,,,,,,0.025,0.02,0.969,0.054,0.093,0.019,0.0,0.0,0.0,13054,12531,11792,12936,7.494
1782571951.8329716,17.960872173309326,drone_1,,hover,,,,,,,,,,0.004,0.018,0.973,-0.006,-0.09,0.007,0.0,0.0,0.0,12738,12484,11990,13003,7.491
1782571952.10351,18.23141050338745,drone_1,,hover,,,,,,,,,,0.017,-0.008,1.0,-0.077,0.148,0.014,0.0,0.0,0.0,12610,12738,12195,12437,7.492
1782571952.4435127,18.571413278579712,drone_1,,hover,,,,,,,,,,0.017,0.004,1.031,0.072,0.002,-0.034,0.0,0.0,0.0,12547,12626,12004,12836,7.486
1782571952.740445,18.868345499038696,drone_1,,hover,,,,,,,,,,0.01,0.011,1.009,-0.042,0.004,-0.001,0.0,0.0,0.0,12755,12578,11947,12870,7.486
1782571953.0104892,19.138389825820923,drone_1,,hover,,,,,,,,,,0.006,0.021,0.984,0.054,-0.018,-0.005,0.0,0.0,0.0,12953,12224,11890,12903,7.49
1782571953.287869,19.415769577026367,drone_1,,hover,,,,,,,,,,0.017,0.02,0.975,0.03,0.067,0.007,0.0,0.0,0.0,12970,12285,11890,12886,7.482
1782571953.5579276,19.68582820892334,drone_1,,hover,,,,,,,,,,0.005,0.026,0.986,0.015,-0.012,0.0,0.0,0.0,0.0,13071,12224,11876,12936,7.479
1782571953.8711026,19.999003171920776,drone_1,,hover,,,,,,,,,,0.01,0.014,1.047,0.027,0.052,-0.002,0.0,0.0,0.0,13227,12210,11778,12886,7.479
1782571954.4360182,20.563918828964233,drone_1,,hover,,,,,,,,,,0.009,0.018,0.991,0.133,-0.053,0.0,0.0,0.0,0.0,13140,12062,11890,13071,7.476
1782571954.755792,20.883692502975464,drone_1,,hover,,,,,,,,,,0.015,0.028,1.031,-0.096,0.091,-0.013,0.0,0.0,0.0,13227,12033,11820,13140,7.472
1782571955.0293846,21.15728521347046,drone_1,,hover,,,,,,,,,,0.002,0.02,1.038,-0.004,0.045,0.021,0.0,0.0,0.0,12886,12224,11862,13192,7.472
1782571955.3332894,21.46118998527527,drone_1,,hover,,,,,,,,,,0.012,0.017,1.076,-0.072,0.03,-0.005,0.0,0.0,0.0,12820,12285,11947,12936,7.471
1782571955.592515,21.720415592193604,drone_1,,hover,,,,,,,,,,0.013,0.011,0.998,0.046,-0.004,0.015,0.0,0.0,0.0,12376,12330,12004,12787,7.474
1782571955.8697925,21.997693061828613,drone_1,,hover,,,,,,,,,,0.001,0.02,1.075,0.054,-0.043,0.012,0.0,0.0,0.0,12180,12903,12484,12330,7.471
1782571956.1277864,22.25568699836731,drone_1,,hover,,,,,,,,,,0.01,0.011,1.043,0.044,-0.029,-0.024,0.0,0.0,0.0,11961,12987,12562,12453,7.471
1782571956.3881583,22.516058921813965,drone_1,,hover,,,,,,,,,,-0.001,0.013,1.0,-0.019,0.077,-0.013,0.0,0.0,0.0,12210,12886,12547,12360,7.472
1782571956.7273,22.85520052909851,drone_1,,hover,,,,,,,,,,0.005,0.02,1.018,0.057,0.015,-0.02,0.0,0.0,0.0,12254,12787,12547,12578,7.473
1782571957.064878,23.19277858734131,drone_1,,hover,,,,,,,,,,0.012,0.01,0.997,0.035,0.099,-0.011,0.0,0.0,0.0,12578,12422,12180,12771,7.465
1782571957.3474345,23.475335121154785,drone_1,,hover,,,,,,,,,,0.019,0.027,0.992,-0.006,-0.027,0.007,0.0,0.0,0.0,12594,12224,12121,12886,7.468
1782571957.6136045,23.74150514602661,drone_1,,hover,,,,,,,,,,0.01,0.015,1.002,0.064,0.129,-0.004,0.0,0.0,0.0,12936,12195,11834,13020,7.466
1782571957.8822243,24.010124921798706,drone_1,,hover,,,,,,,,,,0.003,0.01,0.98,0.066,-0.094,0.007,0.0,0.0,0.0,12936,12269,11904,13245,7.466
1782571958.1370893,24.264989852905273,drone_1,,hover,,,,,,,,,,-0.009,0.017,0.992,-0.091,0.058,-0.002,0.0,0.0,0.0,13106,12210,11806,13440,7.461
1782571958.3857396,24.51364016532898,drone_1,,hover,,,,,,,,,,-0.002,0.017,0.975,0.055,0.028,0.009,0.0,0.0,0.0,13003,12315,11682,13210,7.464
1782571958.638095,24.765995502471924,drone_1,,hover,,,,,,,,,,0.001,-0.004,1.019,-0.021,0.006,0.006,0.0,0.0,0.0,12953,12091,11737,13262,7.451
1782571958.938263,25.066163539886475,drone_1,,hover,,,,,,,,,,0.008,0.004,0.984,0.001,0.106,0.028,0.0,0.0,0.0,12738,12300,11750,13003,7.46
1782571959.2390418,25.366942405700684,drone_1,,hover,,,,,,,,,,0.007,0.009,0.961,-0.01,0.017,0.001,0.0,0.0,0.0,12224,12804,12224,12610,7.457
1782571959.522322,25.650222539901733,drone_1,,hover,,,,,,,,,,0.002,-0.007,1.039,-0.005,0.018,-0.008,0.0,0.0,0.0,12239,12936,12626,12562,7.455
1782571959.86925,25.997150659561157,drone_1,,hover,,,,,,,,,,0.001,0.004,1.033,-0.012,0.066,-0.014,0.0,0.0,0.0,12239,13089,12578,12500,7.451
1782571960.1405025,26.26840305328369,drone_1,,hover,,,,,,,,,,0.007,0.008,0.977,0.043,0.067,0.002,0.0,0.0,0.0,12330,13192,12658,12315,7.453
1782571960.3879457,26.515846252441406,drone_1,,hover,,,,,,,,,,0.0,0.004,0.99,0.009,-0.113,-0.007,0.0,0.0,0.0,12135,12953,12626,12269,7.445
1782571960.699991,26.82789158821106,drone_1,,hover,,,,,,,,,,0.014,0.019,1.005,0.008,0.1,0.03,0.0,0.0,0.0,12004,13037,12886,12004,7.448
1782571961.2353303,27.36323094367981,drone_1,,hover,,,,,,,,,,-0.008,0.028,1.003,0.049,0.041,0.005,0.0,0.0,0.0,11976,13262,13054,11737,7.447
1782571961.489043,27.61694359779358,drone_1,,hover,,,,,,,,,,0.015,0.039,0.962,0.069,-0.029,-0.006,0.0,0.0,0.0,11890,13192,13157,11848,7.441
1782571961.784186,27.912086486816406,drone_1,,hover,,,,,,,,,,0.0,0.033,1.002,0.006,0.109,-0.015,0.0,0.0,0.0,12135,13333,12987,12004,7.444
1782571962.0346718,28.162572383880615,drone_1,,hover,,,,,,,,,,0.008,0.031,1.001,-0.009,-0.035,-0.017,0.0,0.0,0.0,12004,12970,12658,12360,7.443
1782571962.297254,28.42515468597412,drone_1,,hover,,,,,,,,,,0.011,0.025,1.008,-0.086,0.116,0.011,0.0,0.0,0.0,12195,12886,12626,12254,7.446
1782571962.5566628,28.684563398361206,drone_1,,hover,,,,,,,,,,0.003,0.031,0.997,0.046,0.005,0.013,0.0,0.0,0.0,12180,12970,12610,12254,7.443
1782571962.929166,29.057066679000854,drone_1,,hover,,,,,,,,,,0.01,0.022,1.065,-0.021,-0.017,-0.004,0.0,0.0,0.0,12210,13071,12690,12300,7.446
1782571963.2109964,29.338896989822388,drone_1,,hover,,,,,,,,,,0.013,0.016,0.982,-0.006,0.045,0.0,0.0,0.0,0.0,12019,13140,12610,12254,7.435
1782571963.506737,29.634637594223022,drone_1,,hover,,,,,,,,,,0.005,0.026,1.019,-0.035,0.095,0.018,0.0,0.0,0.0,12004,13227,12658,12106,7.436
1782571963.9415133,30.069413900375366,drone_1,,hover,,,,,,,,,,0.007,0.01,1.026,0.037,-0.033,0.011,0.0,0.0,0.0,11614,13404,12853,12004,7.438
1782571964.1928306,30.320731163024902,drone_1,,hover,,,,,,,,,,0.0,0.02,1.049,0.07,0.084,-0.01,0.0,0.0,0.0,11668,13531,12787,12019,7.438
1782571964.4802334,30.608134031295776,drone_1,,hover,,,,,,,,,,0.003,0.018,0.956,0.031,-0.029,0.001,0.0,0.0,0.0,11709,13605,12690,12077,7.429
1782571964.7780476,30.905948162078857,drone_1,,hover,,,,,,,,,,0.0,0.017,0.98,-0.12,-0.026,0.01,0.0,0.0,0.0,11627,13477,12970,11834,7.433
1782571965.0574293,31.185329914093018,drone_1,,hover,,,,,,,,,,0.0,0.013,1.001,0.059,0.024,-0.004,0.0,0.0,0.0,11750,13440,12836,12077,7.43
1782571965.3206632,31.448563814163208,drone_1,,hover,,,,,,,,,,0.007,0.016,0.995,0.001,0.02,0.013,0.0,0.0,0.0,11627,13245,12953,12048,7.427
1782571965.5622826,31.69018316268921,drone_1,,hover,,,,,,,,,,0.006,0.016,1.021,-0.009,0.068,0.0,0.0,0.0,0.0,11682,13386,12903,12004,7.43
1782571965.8971658,32.02506637573242,drone_1,,hover,,,,,,,,,,0.0,0.015,0.977,0.077,-0.038,-0.003,0.0,0.0,0.0,11587,13495,12804,12210,7.429
1782571966.1682546,32.29615521430969,drone_1,,hover,,,,,,,,,,0.019,0.009,1.071,-0.025,0.141,-0.008,0.0,0.0,0.0,11627,13192,12658,12300,7.425
1782571966.4088268,32.53672742843628,drone_1,,hover,,,,,,,,,,0.004,0.015,1.019,0.09,0.069,-0.023,0.0,0.0,0.0,11820,13315,12254,12610,7.427
1782571966.6674194,32.7953200340271,drone_1,,hover,,,,,,,,,,0.003,0.003,1.021,-0.041,-0.028,0.023,0.0,0.0,0.0,11668,13368,12269,12391,7.427
1782571967.0169334,33.14483404159546,drone_1,,hover,,,,,,,,,,0.01,0.004,1.014,-0.013,-0.044,0.019,0.0,0.0,0.0,11641,13513,12642,12391,7.428
1782571967.2918587,33.41975927352905,drone_1,,hover,,,,,,,,,,0.006,-0.004,1.06,0.073,0.017,0.001,0.0,0.0,0.0,11655,13351,12484,12391,7.421
1782571967.5373526,33.66525316238403,drone_1,,hover,,,,,,,,,,0.009,0.0,1.036,0.037,0.121,-0.002,0.0,0.0,0.0,11655,13280,12315,12285,7.419
1782571967.8098617,33.93776226043701,drone_1,,hover,,,,,,,,,,0.013,-0.004,0.981,0.018,-0.051,0.0,0.0,0.0,0.0,11587,13550,12254,12210,7.42
1782571968.0759714,34.203871965408325,drone_1,,hover,,,,,,,,,,0.015,-0.008,1.003,-0.023,-0.042,-0.014,0.0,0.0,0.0,11627,13495,12285,12360,7.422
1782571968.3265903,34.45449090003967,drone_1,,hover,,,,,,,,,,0.009,-0.003,1.047,-0.086,0.066,-0.006,0.0,0.0,0.0,12106,13192,12195,12224,7.42
1782571968.579882,34.70778250694275,drone_1,,hover,,,,,,,,,,0.012,0.002,1.022,0.05,-0.101,-0.002,0.0,0.0,0.0,12091,12919,12150,12500,7.421
1782571968.8654044,34.99330496788025,drone_1,,hover,,,,,,,,,,0.001,0.003,0.966,0.074,0.041,0.025,0.0,0.0,0.0,12150,12970,12106,12547,7.423
1782571969.1420333,35.2699339389801,drone_1,,hover,,,,,,,,,,0.018,0.0,1.037,0.007,0.082,-0.003,0.0,0.0,0.0,12254,12870,12004,12674,7.416
1782571969.4253259,35.553226470947266,drone_1,,hover,,,,,,,,,,0.014,-0.015,0.981,0.031,-0.018,0.013,0.0,0.0,0.0,12330,12953,12091,12674,7.415
1782571969.6855528,35.81345343589783,drone_1,,hover,,,,,,,,,,0.003,0.003,1.034,0.027,0.025,0.009,0.0,0.0,0.0,12062,13157,12406,12300,7.418
1782571969.9779146,36.105815172195435,drone_1,,hover,,,,,,,,,,0.005,0.015,0.991,0.022,0.059,-0.015,0.0,0.0,0.0,12150,12970,12562,12254,7.414
1782571970.260987,36.38888764381409,drone_1,,hover,,,,,,,,,,0.012,-0.004,0.973,0.101,0.05,-0.031,0.0,0.0,0.0,12562,12453,12019,12658,7.415
1782571970.541501,36.6694016456604,drone_1,,hover,,,,,,,,,,0.014,-0.001,0.969,-0.053,0.034,0.017,0.0,0.0,0.0,12531,12547,11947,12500,7.415
1782571970.795417,36.923317670822144,drone_1,,hover,,,,,,,,,,0.004,0.012,0.99,0.058,-0.007,0.017,0.0,0.0,0.0,12345,12626,12269,12610,7.414
1782571971.0828078,37.21070837974548,drone_1,,hover,,,,,,,,,,0.006,0.008,1.081,-0.054,0.071,-0.01,0.0,0.0,0.0,12594,12453,12077,12706,7.41
1782571971.3364346,37.464335203170776,drone_1,,hover,,,,,,,,,,-0.005,0.016,0.993,-0.025,-0.033,0.012,0.0,0.0,0.0,12562,12610,12269,12578,7.41
1782571971.6532304,37.78113102912903,drone_1,,hover,,,,,,,,,,0.01,0.013,1.015,0.107,-0.043,0.0,0.0,0.0,0.0,12610,12547,12195,12919,7.409
1782571971.9090538,38.036954402923584,drone_1,,hover,,,,,,,,,,0.005,0.016,0.983,0.0,0.076,0.017,0.0,0.0,0.0,12239,12953,12345,12484,7.406
1782571972.1482787,38.27617931365967,drone_1,,hover,,,,,,,,,,0.0,0.012,1.005,-0.021,0.01,-0.009,0.0,0.0,0.0,12195,12919,12376,12360,7.411
1782571972.42231,38.55021071434021,drone_1,,hover,,,,,,,,,,0.014,0.007,1.002,0.052,-0.107,-0.009,0.0,0.0,0.0,12019,12870,12422,12706,7.405
1782571972.6844718,38.81237244606018,drone_1,,hover,,,,,,,,,,0.002,0.012,1.04,-0.01,0.096,-0.007,0.0,0.0,0.0,12033,12903,12578,12626,7.402
1782571972.96155,39.08945059776306,drone_1,,hover,,,,,,,,,,0.003,-0.012,1.065,0.039,-0.042,-0.017,0.0,0.0,0.0,12210,12853,12578,12787,7.399
1782571973.2207234,39.34862399101257,drone_1,,hover,,,,,,,,,,-0.014,-0.009,1.008,0.006,0.039,0.01,0.0,0.0,0.0,12135,12903,12626,12330,7.406
1782571973.4909346,39.61883521080017,drone_1,,hover,,,,,,,,,,0.011,0.014,0.966,0.01,0.051,-0.014,0.0,0.0,0.0,12239,12970,12562,12500,7.401
1782571973.7468376,39.87473821640015,drone_1,,hover,,,,,,,,,,-0.002,0.011,1.046,0.094,-0.073,-0.007,0.0,0.0,0.0,12315,12870,12642,12690,7.396
1782571974.0135067,40.14140725135803,drone_1,,hover,,,,,,,,,,0.026,-0.014,1.006,0.076,0.061,0.002,0.0,0.0,0.0,12422,12642,12285,12804,7.401
1782571974.3136954,40.441596031188965,drone_1,,hover,,,,,,,,,,0.0,-0.001,0.979,-0.021,-0.036,0.004,0.0,0.0,0.0,12547,12820,12269,12738,7.401
1782571974.5881422,40.7160427570343,drone_1,,hover,,,,,,,,,,0.011,0.019,0.994,0.035,0.076,0.014,0.0,0.0,0.0,12224,12870,12269,12738,7.397
1782571974.8711407,40.99904131889343,drone_1,,hover,,,,,,,,,,0.012,0.005,0.983,-0.053,-0.07,-0.005,0.0,0.0,0.0,12254,12836,12406,12578,7.398
1782571975.1489944,41.27689504623413,drone_1,,hover,,,,,,,,,,0.0,0.019,1.03,0.139,-0.029,-0.008,0.0,0.0,0.0,12239,12870,12224,12594,7.394
1782571975.4556034,41.58350396156311,drone_1,,hover,,,,,,,,,,0.018,0.033,0.96,0.014,0.017,0.001,0.0,0.0,0.0,12285,12903,12330,12515,7.395
1782571975.7338195,41.86172008514404,drone_1,,hover,,,,,,,,,,0.006,0.014,0.982,0.052,-0.01,-0.003,0.0,0.0,0.0,12269,12804,12360,12626,7.391
1782571976.3551025,42.48300313949585,drone_1,,hover,,,,,,,,,,0.013,0.021,1.011,-0.013,0.064,-0.009,0.0,0.0,0.0,12547,12804,12269,12610,7.389
1782571977.0505104,43.17841100692749,drone_1,,hover,,,,,,,,,,0.004,0.008,1.039,-0.03,0.092,0.01,0.0,0.0,0.0,12531,12870,12453,12330,7.391
1782571977.5436432,43.67154383659363,drone_1,,hover,,,,,,,,,,-0.004,0.023,1.092,-0.005,0.056,-0.001,0.0,0.0,0.0,12345,12919,12722,12033,7.386
1782571978.1204834,44.24838399887085,drone_1,,hover,,,,,,,,,,0.0,0.026,1.007,-0.021,0.05,-0.01,0.0,0.0,0.0,12562,12578,12547,12376,7.387
1782571978.4714496,44.59935021400452,drone_1,,hover,,,,,,,,,,0.0,0.04,1.015,-0.075,0.012,-0.02,0.0,0.0,0.0,12870,12210,12195,12594,7.391
1782571978.7823162,44.91021680831909,drone_1,,hover,,,,,,,,,,0.008,0.034,0.996,0.01,-0.067,0.045,0.0,0.0,0.0,12853,12315,12210,12706,7.39
1782571979.1178434,45.24574398994446,drone_1,,hover,,,,,,,,,,0.006,0.035,1.007,0.006,0.008,-0.007,0.0,0.0,0.0,13071,12224,12150,12690,7.387
1782571979.3676517,45.49555230140686,drone_1,,hover,,,,,,,,,,0.004,0.029,1.003,0.102,-0.031,0.011,0.0,0.0,0.0,12853,12048,12048,12853,7.387
1782571979.6459508,45.77385139465332,drone_1,,hover,,,,,,,,,,0.02,0.024,0.998,-0.091,0.214,0.026,0.0,0.0,0.0,12562,12239,12300,12562,7.382
1782571979.9814212,46.10932183265686,drone_1,,hover,,,,,,,,,,0.013,0.038,0.99,0.017,-0.049,-0.011,0.0,0.0,0.0,12468,12453,12547,12285,7.379
1782571980.2331266,46.361027240753174,drone_1,,hover,,,,,,,,,,0.005,0.033,1.022,-0.023,-0.017,0.012,0.0,0.0,0.0,12562,12706,12610,12165,7.38
1782571980.4990165,46.626917123794556,drone_1,,hover,,,,,,,,,,0.003,0.027,1.064,0.022,-0.046,-0.018,0.0,0.0,0.0,12239,12722,12642,12239,7.377
1782571980.7583616,46.88626217842102,drone_1,,hover,,,,,,,,,,0.004,0.029,0.985,0.05,0.021,-0.02,0.0,0.0,0.0,12315,12787,12484,12285,7.379
1782571981.0186048,47.14650535583496,drone_1,,hover,,,,,,,,,,0.004,0.02,0.995,-0.084,-0.035,0.011,0.0,0.0,0.0,12315,12903,12674,12345,7.374
1782571981.3248997,47.452800273895264,drone_1,,hover,,,,,,,,,,0.006,0.016,1.032,-0.072,0.041,-0.004,0.0,0.0,0.0,12315,12836,12594,12610,7.371
1782571981.5748844,47.7027850151062,drone_1,,hover,,,,,,,,,,-0.005,0.022,0.946,-0.011,0.071,-0.027,0.0,0.0,0.0,12531,12674,12239,12970,7.374
1782571981.9244473,48.052347898483276,drone_1,,hover,,,,,,,,,,-0.003,0.013,1.05,0.005,-0.001,0.021,0.0,0.0,0.0,12547,12531,12019,12987,7.368
1782571982.2057078,48.33360838890076,drone_1,,hover,,,,,,,,,,0.001,0.009,0.942,-0.006,-0.027,0.017,0.0,0.0,0.0,12269,12836,12315,12870,7.366
1782571982.4940152,48.62191581726074,drone_1,,hover,,,,,,,,,,0.0,0.003,1.03,0.008,-0.009,-0.012,0.0,0.0,0.0,12239,12886,12376,12722,7.371
1782571982.7938178,48.92171835899353,drone_1,,hover,,,,,,,,,,0.003,-0.009,1.044,-0.011,-0.017,0.003,0.0,0.0,0.0,12165,12987,12406,12594,7.369
1782571983.0913827,49.21928334236145,drone_1,,hover,,,,,,,,,,-0.003,0.009,0.963,-0.03,0.05,-0.003,0.0,0.0,0.0,12315,12919,12531,12578,7.365
1782571983.4267688,49.55466938018799,drone_1,,hover,,,,,,,,,,0.014,0.009,1.068,0.022,0.027,-0.013,0.0,0.0,0.0,12391,12690,12254,12755,7.371
1782571983.9575899,50.085490465164185,drone_1,,hover,,,,,,,,,,0.011,0.0,0.995,0.014,0.028,0.019,0.0,0.0,0.0,12547,12674,12180,12531,7.365
1782571984.596805,50.72470569610596,drone_1,,hover,,,,,,,,,,0.017,0.013,0.996,0.076,0.054,-0.02,0.0,0.0,0.0,12787,12406,12077,12820,7.368
1782571985.1336484,51.26154899597168,drone_1,,hover,,,,,,,,,,0.011,0.041,1.013,-0.091,0.03,0.011,0.0,0.0,0.0,12345,12578,12300,12484,7.369
1782571985.6322803,51.760180950164795,drone_1,,hover,,,,,,,,,,0.001,0.01,0.98,0.008,0.008,-0.006,0.0,0.0,0.0,12610,12531,12254,12690,7.358
1782571986.15678,52.28468060493469,drone_1,,hover,,,,,,,,,,0.004,0.038,0.996,0.01,0.031,-0.011,0.0,0.0,0.0,12453,12330,12150,12690,7.361
1782571986.4940841,52.6219847202301,drone_1,,hover,,,,,,,,,,-0.002,0.029,1.047,-0.086,-0.027,0.033,0.0,0.0,0.0,12106,12903,12658,12531,7.363
1782571986.77567,52.90357065200806,drone_1,,hover,,,,,,,,,,0.011,0.016,1.04,-0.024,0.064,0.023,0.0,0.0,0.0,11806,13175,12853,12033,7.356
1782571987.0290413,53.15694189071655,drone_1,,hover,,,,,,,,,,0.004,0.013,1.033,-0.017,-0.025,-0.017,0.0,0.0,0.0,11695,13386,12936,12048,7.352
1782571987.3344383,53.46233892440796,drone_1,,hover,,,,,,,,,,0.013,0.009,0.989,0.03,0.06,-0.019,0.0,0.0,0.0,12004,13020,12578,12254,7.357
1782571987.5952349,53.723135471343994,drone_1,,hover,,,,,,,,,,0.015,0.011,1.068,0.014,0.073,0.003,0.0,0.0,0.0,12077,12919,12706,12269,7.359
1782571987.8605423,53.98844289779663,drone_1,,hover,,,,,,,,,,0.006,0.0,1.038,0.093,0.041,-0.007,0.0,0.0,0.0,12254,13020,12642,12345,7.352
1782571988.270578,54.398478507995605,drone_1,,hover,,,,,,,,,,0.009,0.018,1.052,-0.053,0.044,0.001,0.0,0.0,0.0,12484,12642,12437,12674,7.353
1782571988.5262506,54.65415120124817,drone_1,,hover,,,,,,,,,,0.001,0.023,1.042,0.004,-0.031,0.011,0.0,0.0,0.0,12500,12853,12239,12626,7.35
1782571988.8717568,54.99965739250183,drone_1,,hover,,,,,,,,,,0.005,0.0,0.949,0.01,-0.042,0.0,0.0,0.0,0.0,12468,12658,12269,12594,7.35
1782571989.2732341,55.401134729385376,drone_1,,hover,,,,,,,,,,0.019,0.02,0.967,0.106,-0.007,0.008,0.0,0.0,0.0,12706,12531,11904,12886,7.346
1782571989.6320665,55.75996708869934,drone_1,,hover,,,,,,,,,,0.001,-0.005,1.014,-0.038,-0.001,-0.005,0.0,0.0,0.0,12642,12755,12165,12787,7.351
1782571989.9050238,56.03292441368103,drone_1,,hover,,,,,,,,,,0.0,0.015,1.043,-0.012,0.043,-0.004,0.0,0.0,0.0,12626,12706,12106,12722,7.352
1782571990.1656237,56.29352426528931,drone_1,,hover,,,,,,,,,,0.013,0.008,0.959,-0.002,-0.056,0.011,0.0,0.0,0.0,12626,12787,12195,12674,7.347
1782571990.406005,56.53390550613403,drone_1,,hover,,,,,,,,,,-0.007,0.015,1.002,0.026,0.057,0.008,0.0,0.0,0.0,12453,13020,12376,12610,7.345
1782571990.6512828,56.77918338775635,drone_1,,hover,,,,,,,,,,0.001,0.013,1.016,0.051,-0.046,0.003,0.0,0.0,0.0,12269,13020,12360,12391,7.346
1782571990.9049091,57.03280973434448,drone_1,,hover,,,,,,,,,,0.004,0.01,1.03,-0.014,0.041,-0.022,0.0,0.0,0.0,12224,12970,12345,12500,7.341
1782571991.1742268,57.30212736129761,drone_1,,hover,,,,,,,,,,0.005,0.026,1.015,0.074,0.042,-0.007,0.0,0.0,0.0,12062,13071,12515,12406,7.349
1782571991.440653,57.56855368614197,drone_1,,hover,,,,,,,,,,0.009,0.012,0.982,-0.025,0.022,0.003,0.0,0.0,0.0,12210,13140,12610,12437,7.341
1782571991.715904,57.843804597854614,drone_1,,hover,,,,,,,,,,0.007,0.014,1.009,0.008,-0.002,-0.005,0.0,0.0,0.0,12048,13140,12820,12224,7.346
1782571991.9739869,58.101887464523315,drone_1,,hover,,,,,,,,,,0.0,0.022,0.977,0.124,0.061,-0.015,0.0,0.0,0.0,12239,13054,12690,12406,7.34
1782571992.2257237,58.35362434387207,drone_1,,hover,,,,,,,,,,0.001,0.022,0.996,0.07,-0.017,0.0,0.0,0.0,0.0,12422,12903,12610,12500,7.343
1782571992.4952683,58.6231689453125,drone_1,,hover,,,,,,,,,,-0.005,0.016,1.005,-0.053,0.055,-0.012,0.0,0.0,0.0,12422,12804,12658,12422,7.335
1782571992.779638,58.907538652420044,drone_1,,hover,,,,,,,,,,0.002,0.031,0.971,0.057,-0.058,0.012,0.0,0.0,0.0,12224,12804,12626,12578,7.34
1782571993.0541005,59.1820011138916,drone_1,,hover,,,,,,,,,,0.009,-0.009,1.05,-0.052,0.123,0.013,0.0,0.0,0.0,12547,12870,12500,12547,7.341
1782571993.3032892,59.43118977546692,drone_1,,hover,,,,,,,,,,0.003,0.012,1.057,0.0,-0.125,-0.002,0.0,0.0,0.0,12484,12820,12610,12706,7.333
1782571993.5900002,59.71790075302124,drone_1,,hover,,,,,,,,,,0.0,0.03,1.009,-0.075,0.012,-0.003,0.0,0.0,0.0,12391,12836,12315,12919,7.335
1782571993.9363377,60.06423830986023,drone_1,,hover,,,,,,,,,,0.01,0.015,0.988,-0.04,0.05,0.014,0.0,0.0,0.0,12254,12738,12224,12787,7.343
1782571994.1856549,60.31355547904968,drone_1,,hover,,,,,,,,,,-0.001,0.023,1.004,0.091,0.005,0.0,0.0,0.0,0.0,12239,12755,11990,12738,7.342
1782571994.5016332,60.629533767700195,drone_1,,hover,,,,,,,,,,-0.013,0.013,0.971,-0.082,0.027,0.019,0.0,0.0,0.0,12269,12738,12376,12594,7.332
1782571994.794685,60.92258548736572,drone_1,,hover,,,,,,,,,,-0.001,0.005,1.024,0.039,0.09,-0.007,0.0,0.0,0.0,12048,13262,12360,12787,7.326
1782571995.140794,61.26869463920593,drone_1,,hover,,,,,,,,,,0.008,0.009,0.969,-0.141,0.029,-0.011,0.0,0.0,0.0,12300,13020,12376,12610,7.331
1782571995.4685802,61.59648084640503,drone_1,,hover,,,,,,,,,,0.013,0.012,1.029,0.015,0.116,-0.013,0.0,0.0,0.0,12224,12738,12484,12406,7.33
1782571995.810934,61.93883466720581,drone_1,,hover,,,,,,,,,,-0.01,0.014,1.031,0.177,-0.07,-0.009,0.0,0.0,0.0,12391,12330,12285,12755,7.331
1782571996.0753121,62.20321273803711,drone_1,,hover,,,,,,,,,,-0.006,0.02,0.998,0.043,0.056,0.028,0.0,0.0,0.0,12453,12594,12315,12562,7.326
1782571996.3759606,62.50386118888855,drone_1,,hover,,,,,,,,,,0.0,0.027,1.016,0.04,-0.006,0.012,0.0,0.0,0.0,12468,12722,12468,12594,7.331
1782571996.8437765,62.97167706489563,drone_1,,hover,,,,,,,,,,0.003,0.027,1.018,0.0,0.083,-0.011,0.0,0.0,0.0,12468,12674,12345,12771,7.323
1782571997.1655378,63.29343843460083,drone_1,,hover,,,,,,,,,,0.004,0.019,1.099,-0.09,0.175,0.037,0.0,0.0,0.0,12269,12870,12437,12360,7.317
1782571997.4097762,63.53767681121826,drone_1,,hover,,,,,,,,,,-0.004,0.021,0.981,0.03,-0.036,-0.001,0.0,0.0,0.0,11947,13106,12919,12165,7.325
1782571997.6890895,63.81699013710022,drone_1,,hover,,,,,,,,,,0.004,0.034,1.035,0.02,0.115,-0.039,0.0,0.0,0.0,12165,13071,12722,12239,7.322
1782571998.0006976,64.1285982131958,drone_1,,hover,,,,,,,,,,0.01,0.025,0.944,-0.054,-0.02,-0.005,0.0,0.0,0.0,12300,12987,12738,12484,7.318
1782571998.4248176,64.55271816253662,drone_1,,hover,,,,,,,,,,0.0,0.024,0.988,0.119,-0.003,-0.013,0.0,0.0,0.0,12391,12886,12269,12886,7.316
1782571998.7286272,64.85652780532837,drone_1,,hover,,,,,,,,,,0.019,0.01,1.053,-0.102,0.023,0.011,0.0,0.0,0.0,12547,12804,12210,12870,7.318
1782571999.0094855,65.1373860836029,drone_1,,hover,,,,,,,,,,0.011,0.0,0.989,0.068,0.01,0.02,0.0,0.0,0.0,12578,12903,12195,12755,7.316
1782571999.370516,65.49841666221619,drone_1,,hover,,,,,,,,,,0.001,0.015,1.036,-0.022,0.128,-0.026,0.0,0.0,0.0,12919,12610,11723,13157,7.32
1782572000.2444618,66.3723623752594,drone_1,,hover,,,,,,,,,,0.007,-0.001,0.954,0.021,0.054,0.033,0.0,0.0,0.0,12642,12500,11904,13071,7.321
1782572000.8808415,67.00874209403992,drone_1,,hover,,,,,,,,,,-0.009,0.011,0.966,0.057,-0.012,-0.045,0.0,0.0,0.0,13227,12165,11890,13333,7.312
1782572001.4033756,67.5312762260437,drone_1,,hover,,,,,,,,,,0.007,0.021,1.059,0.011,-0.052,0.009,0.0,0.0,0.0,12953,12285,12195,12722,7.316
1782572001.920478,68.0483787059784,drone_1,,hover,,,,,,,,,,0.008,0.026,1.037,-0.107,-0.086,-0.002,0.0,0.0,0.0,12315,12674,12345,12531,7.312
1782572002.235752,68.36365270614624,drone_1,,hover,,,,,,,,,,0.017,0.03,0.977,-0.057,0.031,-0.014,0.0,0.0,0.0,12453,12674,12453,12330,7.31
1782572002.6085563,68.73645687103271,drone_1,,hover,,,,,,,,,,0.008,0.027,0.978,-0.012,0.006,-0.009,0.0,0.0,0.0,12547,12626,12285,12468,7.311
1782572003.1859655,69.31386613845825,drone_1,,hover,,,,,,,,,,0.011,0.022,1.016,0.083,-0.009,0.002,0.0,0.0,0.0,12610,12500,12547,12738,7.307
1782572003.479286,69.60718655586243,drone_1,,hover,,,,,,,,,,-0.002,0.041,1.03,-0.092,0.099,0.018,0.0,0.0,0.0,12578,12722,12515,12360,7.309
1782572003.7513025,69.87920308113098,drone_1,,hover,,,,,,,,,,0.01,0.036,0.961,0.049,-0.013,0.0,0.0,0.0,0.0,12422,12870,12658,12224,7.305
1782572004.0419867,70.16988730430603,drone_1,,hover,,,,,,,,,,0.004,0.026,1.07,0.0,-0.006,-0.014,0.0,0.0,0.0,12547,12690,12500,12453,7.301
1782572004.3035815,70.4314820766449,drone_1,,hover,,,,,,,,,,0.021,0.027,0.982,0.0,0.039,0.018,0.0,0.0,0.0,12484,13003,12610,12422,7.305
1782572004.6034746,70.73137521743774,drone_1,,hover,,,,,,,,,,0.006,0.028,1.046,-0.054,-0.011,0.007,0.0,0.0,0.0,12195,13333,12771,11918,7.299
1782572004.8968716,71.02477216720581,drone_1,,hover,,,,,,,,,,0.015,0.018,1.027,0.071,0.004,-0.027,0.0,0.0,0.0,12239,13227,12755,12048,7.3
1782572005.2018404,71.32974100112915,drone_1,,hover,,,,,,,,,,0.009,0.022,0.975,-0.029,0.033,0.0,0.0,0.0,0.0,12210,13054,12722,11990,7.309
1782572005.5774446,71.7053451538086,drone_1,,hover,,,,,,,,,,0.011,0.022,1.065,-0.001,-0.011,0.02,0.0,0.0,0.0,12019,13422,13422,11013,7.302
1782572006.037248,72.16514849662781,drone_1,,hover,,,,,,,,,,0.171,-0.09,0.962,-0.663,-1.219,-0.123,0.0,0.0,0.0,12903,3469,14992,14947,7.283
1782572006.3162513,72.44415187835693,drone_1,,hover,,,,,,,,,,0.638,-0.382,0.335,-1.321,-4.007,-0.633,0.0,0.0,0.0,10729,2558,13568,15625,7.299
1782572006.63632,72.76422071456909,drone_1,,hover,,,,,,,,,,0.645,-0.234,-0.733,-0.751,-2.256,-0.083,0.0,0.0,0.0,125,125,125,125,7.501
1782572006.9419515,73.06985211372375,drone_1,,hover,,,,,,,,,,0.223,-0.099,-1.027,-0.283,-1.024,-0.382,0.0,0.0,0.0,125,125,125,125,7.525
1782572007.1904895,73.3183901309967,drone_1,,hover,,,,,,,,,,0.278,-0.252,-1.004,0.906,1.878,0.704,0.0,0.0,0.0,125,125,125,125,7.525
1782572007.6796484,73.80754899978638,drone_1,,hover,,,,,,,,,,0.655,-0.506,-0.675,1.302,3.511,1.415,0.0,0.0,0.0,125,125,125,125,7.541
1782572007.9331243,74.0610249042511,drone_1,,hover,,,,,,,,,,0.321,-0.994,-0.059,-0.354,-0.064,0.711,0.0,0.0,0.0,125,125,125,125,7.541
1782572008.38363,74.51153063774109,drone_1,,hover,,,,,,,,,,0.232,-1.007,-0.069,-0.07,-0.038,0.501,0.0,0.0,0.0,125,125,125,125,7.547
1782572008.8933673,75.02126789093018,drone_1,,hover,,,,,,,,,,-0.02,-0.961,-0.053,0.547,0.273,0.431,0.0,0.0,0.0,125,125,125,125,7.553
1782572009.6148093,75.74270987510681,drone_1,,hover,,,,,,,,,,-0.107,-0.99,0.009,-0.031,0.196,-0.015,0.0,0.0,0.0,125,125,125,125,7.566
1782572010.0597713,76.18767189979553,drone_1,,hover,,,,,,,,,,-0.046,-0.999,-0.025,0.617,0.3,0.284,0.0,0.0,0.0,125,125,125,125,7.569
1782572010.535505,76.66340565681458,drone_1,,hover,,,,,,,,,,-0.107,-0.899,0.059,-1.016,0.052,0.068,0.0,0.0,0.0,125,125,125,125,7.58
1782572010.817396,76.9452965259552,drone_1,,hover,,,,,,,,,,-0.085,-1.159,0.077,1.249,0.594,0.162,0.0,0.0,0.0,125,125,125,125,7.579
1782572011.0983055,77.22620606422424,drone_1,,hover,,,,,,,,,,-0.343,-0.806,0.357,1.279,-0.499,0.323,0.0,0.0,0.0,125,125,125,125,7.582
1782572011.3448482,77.47274875640869,drone_1,,hover,,,,,,,,,,-0.168,-0.625,0.645,1.802,-0.404,0.344,0.0,0.0,0.0,125,125,125,125,7.588
1782572011.6102989,77.73819947242737,drone_1,,hover,,,,,,,,,,-0.009,-0.351,0.707,0.239,-0.272,-0.113,0.0,0.0,0.0,125,125,125,125,7.585
1782572011.8958151,78.02371573448181,drone_1,,hover,,,,,,,,,,0.011,-0.407,0.708,-0.353,-0.287,-0.28,0.0,0.0,0.0,125,125,125,125,7.594
1782572012.1693685,78.29726910591125,drone_1,,hover,,,,,,,,,,0.132,-0.362,0.901,0.747,0.094,0.199,0.0,0.0,0.0,125,125,125,125,7.591
1782572012.458192,78.586092710495,drone_1,,hover,,,,,,,,,,0.123,-0.283,1.087,0.057,0.211,-0.657,0.0,0.0,0.0,125,125,125,125,7.603
